{
  "id": 13,
  "name": "Aruba",
  "iso3": "ABW",
  "iso2": "AW",
  "numeric_code": "533",
  "phonecode": "297",
  "capital": "Oranjestad",
  "currency": "AWG",
  "currency_name": "Aruban florin",
  "currency_symbol": "∆í",
  "tld": ".aw",
  "native": "Aruba",
  "region": "Americas",
  "region_id": 2,
  "subregion": "Caribbean",
  "subregion_id": 7,
  "nationality": "Aruban",
  "timezones": [
    {
      "zoneName": "America/Aruba",
      "gmtOffset": -14400,
      "gmtOffsetName": "UTC-04:00",
      "abbreviation": "AST",
      "tzName": "Atlantic Standard Time"
    }
  ],
  "translations": {
    "br": "Aruba",
    "ko": "ÏïÑÎ£®Î∞î",
    "pt-BR": "Aruba",
    "pt": "Aruba",
    "nl": "Aruba",
    "hr": "Aruba",
    "fa": "ÿ¢ÿ±Ÿàÿ®ÿß",
    "de": "Aruba",
    "es": "Aruba",
    "fr": "Aruba",
    "ja": "„Ç¢„É´„Éê",
    "it": "Aruba",
    "zh-CN": "ÈòøÈ≤ÅÂ∑¥",
    "tr": "Aruba",
    "ru": "–ê—Ä—É–±–∞",
    "uk": "–ê—Ä—É–±–∞",
    "pl": "Aruba"
  },
  "latitude": "12.50000000",
  "longitude": "-69.96666666",
  "emoji": "üá¶üáº",
  "emojiU": "U+1F1E6 U+1F1FC",
  "divisions": [
    {
      "id": 5243,
      "name": "Noord",
      "state_code": null,
      "latitude": "12.58243290",
      "longitude": "-70.06761180",
      "type": "region",
      "cities": []
    },
    {
      "id": 5341,
      "name": "Oranjestad",
      "state_code": null,
      "latitude": "12.50837050",
      "longitude": "-70.05452530",
      "type": "capital city",
      "cities": []
    },
    {
      "id": 5245,
      "name": "Oranjestad East",
      "state_code": null,
      "latitude": "12.51331810",
      "longitude": "-70.05048180",
      "type": "region",
      "cities": []
    },
    {
      "id": 5244,
      "name": "Oranjestad West",
      "state_code": null,
      "latitude": "12.53522930",
      "longitude": "-70.06284040",
      "type": "region",
      "cities": []
    },
    {
      "id": 5246,
      "name": "Paradera",
      "state_code": null,
      "latitude": "12.53628710",
      "longitude": "-70.01485110",
      "type": "region",
      "cities": []
    },
    {
      "id": 5247,
      "name": "San Nicolaas Noord",
      "state_code": null,
      "latitude": "12.46427170",
      "longitude": "-69.94349390",
      "type": "region",
      "cities": []
    },
    {
      "id": 5248,
      "name": "San Nicolaas Zuid",
      "state_code": null,
      "latitude": "12.42785580",
      "longitude": "-69.93810790",
      "type": "region",
      "cities": []
    },
    {
      "id": 5249,
      "name": "Santa Cruz",
      "state_code": null,
      "latitude": "12.51128360",
      "longitude": "-69.98769660",
      "type": "region",
      "cities": []
    },
    {
      "id": 5250,
      "name": "Savaneta",
      "state_code": null,
      "latitude": "12.46184190",
      "longitude": "-69.98558580",
      "type": "region",
      "cities": []
    }
  ]
}